name,description,address,lat,lng,face1_code,face1_height,face1_width,face1_reads,face1_label,face1_hard_cost,face1_monthly_impressions,face1_notes,face1_max_ads,face1_type,face1_duration,face1_is_illuminated,face1_lights_on,face1_lights_off,face2_code,face2_height,face2_width,face2_reads,face2_label,face2_hard_cost,face2_monthly_impressions,face2_notes,face2_max_ads,face2_type,face2_duration,face2_is_illuminated,face2_lights_on,face2_lights_off,face3_code,face3_height,face3_width,face3_reads,face3_label,face3_hard_cost,face3_monthly_impressions,face3_notes,face3_max_ads,face3_type,face3_duration,face3_is_illuminated,face3_lights_on,face3_lights_off
Insert 1,Billboards Test 1,"Intermodal Hub, 300 S 600 W, Salt Lake City, UT 84101, EUA",40.762429,-111.909025,BC1,400,400,right,West,100000,150000,Notes 1,30000,static,10,No,,,BC10,400,400,left,Lest,100000,150000,Notes 1,10000,digital,10,No,,,BC20,400,400,across,South,100000,150000,Notes 1,10000,static,10,no,,
Insert 2,Billboards Test 2,"171 N 2100 W St, Salt Lake City, UT 84116, EUA",40.772913,-111.950544,BC2,401,401,right,West,100001,150001,Notes 2,10001,static,11,Yes,05:00:00 PM,06:00:00 AM,BC11,401,401,left,Lest,100001,150001,Notes 2,10001,static,11,Yes,05:00:00 PM,06:00:00 AM,BC21,401,401,across,South,100001,150001,Notes 2,10001,static,11,Yes,05:00:00 PM,06:00:00 AM
Insert 3,Billboards Test 3,"1692 W North Temple, Salt Lake City, UT 84116, EUA",40.77203,-111.938997,BC3,402,402,right,West,100002,150002,Notes 3,10002,static,12,Yes,05:00:00 PM,06:00:00 AM,BC12,402,402,left,Lest,100002,150002,Notes 3,10002,digital,12,Yes,05:00:00 PM,06:00:00 AM,BC22,402,402,across,South,100002,150002,Notes 3,10002,digital,12,Yes,05:00:00 PM,06:00:00 AM
Insert 4,Billboards Test 4,"UT-201, West Valley City, UT 84119, EUA",40.724465,-111.931292,BC4,403,403,right,West,100003,150003,Notes 4,10003,static,13,Yes,05:00:00 PM,06:00:00 AM,BC13,403,403,left,Lest,100003,150003,Notes 4,10003,digital,13,Yes,05:00:00 PM,06:00:00 AM,BC23,403,403,across,South,100003,150003,Notes 4,10003,digital,13,Yes,05:00:00 PM,06:00:00 AM
Insert 5,Billboards Test 5,"I-215, Salt Lake City, UT 84109, EUA",40.707441,-111.797043,BC5,404,404,right,West,100004,150004,Notes 5,10004,static,14,Yes,05:00:00 PM,06:00:00 AM,BC14,404,404,left,Lest,100004,150004,Notes 5,10004,static,14,Yes,05:00:00 PM,06:00:00 AM,,,,,,,,,,,,,,
Insert 6,Billboards Test 6,"UT-186, Foothill Dr & E Parleys Way, Salt Lake City, UT 84109, EUA",40.7141559,-111.8079634,BC6,405,405,right,West,100005,150005,Notes 6,10005,static,15,Yes,05:00:00 PM,06:00:00 AM,BC15,405,405,left,Lest,100005,150005,Notes 6,10005,digital,15,Yes,05:00:00 PM,06:00:00 AM,,,,,,,,,,,,,,
Insert 7,Billboards Test 7,"Downtown Salt Lake City, Salt Lake City, UT 84116, EUA",40.7702428,-111.9115922,BC7,406,406,right,West,100006,150006,Notes 7,10006,static,16,Yes,05:00:00 PM,06:00:00 AM,BC16,406,406,left,Lest,100006,150006,Notes 7,10006,digital,16,Yes,05:00:00 PM,06:00:00 AM,,,,,,,,,,,,,,
